$GNGGA,025051.20,4003.8513431,N,11613.6877644,E,5,26,0.59,54.805,M,,M,2.000,0000*43
$GNGGA,025051.40,4003.8513424,N,11613.6877730,E,5,26,0.59,54.812,M,,M,2.000,0000*45
$GNGGA,025051.60,4003.8513457,N,11613.6877859,E,5,26,0.59,54.815,M,,M,2.000,0000*44
$GNGGA,025051.79,4003.8513534,N,11613.6877880,E,5,26,0.59,54.824,M,,M,1.000,0000*4D
$GNGGA,025052.00,4003.8515909,N,11613.6874613,E,4,26,0.59,54.606,M,,M,2.000,0000*4F
$GNGGA,025052.20,4003.8515905,N,11613.6874611,E,4,26,0.59,54.609,M,,M,2.000,0000*4C
$GNGGA,025052.40,4003.8515908,N,11613.6874614,E,4,26,0.59,54.606,M,,M,2.000,0000*4D
$GNGGA,025052.60,4003.8515909,N,11613.6874612,E,4,26,0.59,54.605,M,,M,2.000,0000*4B
$GNGGA,025052.79,4003.8515905,N,11613.6874616,E,4,26,0.59,54.604,M,,M,2.000,0000*4A
$GNGGA,025053.00,4003.8515911,N,11613.6874609,E,4,26,0.59,54.612,M,,M,2.000,0000*49
$GNGGA,025053.20,4003.8515902,N,11613.6874619,E,4,26,0.59,54.609,M,,M,2.000,0000*42
$GNGGA,025053.40,4003.8515906,N,11613.6874621,E,4,26,0.59,54.609,M,,M,2.000,0000*4B
$GNGGA,025053.60,4003.8515911,N,11613.6874607,E,4,26,0.59,54.609,M,,M,2.000,0000*4B
$GNGGA,025053.79,4003.8515902,N,11613.6874610,E,4,26,0.59,54.610,M,,M,1.000,0000*4C
$GNGGA,025054.00,4003.8515898,N,11613.6874615,E,4,26,0.59,54.610,M,,M,2.000,0000*41
$GNGGA,025054.20,4003.8515900,N,11613.6874616,E,4,26,0.59,54.612,M,,M,2.000,0000*42
$GNGGA,025054.40,4003.8515905,N,11613.6874611,E,4,26,0.59,54.609,M,,M,2.000,0000*4C
$GNGGA,025054.60,4003.8515901,N,11613.6874625,E,4,26,0.59,54.611,M,,M,2.000,0000*44
$GNGGA,025054.79,4003.8515901,N,11613.6874623,E,4,26,0.59,54.613,M,,M,2.000,0000*48
$GNGGA,025055.00,4003.8515903,N,11613.6874628,E,4,26,0.59,54.613,M,,M,3.000,0000*4F
$GNGGA,025055.20,4003.8515903,N,11613.6874620,E,4,26,0.59,54.615,M,,M,3.000,0000*43
$GNGGA,025055.40,4003.8515908,N,11613.6874604,E,4,26,0.59,54.613,M,,M,2.000,0000*4F
$GNGGA,025055.60,4003.8515907,N,11613.6874609,E,4,26,0.59,54.612,M,,M,2.000,0000*4E
$GNGGA,025055.79,4003.8515908,N,11613.6874606,E,4,26,0.59,54.612,M,,M,2.000,0000*46
$GNGGA,025056.00,4003.8515906,N,11613.6874610,E,4,26,0.59,54.612,M,,M,3.000,0000*43
$GNGGA,025056.20,4003.8515905,N,11613.6874605,E,4,26,0.59,54.612,M,,M,3.000,0000*46
$GNGGA,025056.40,4003.8515911,N,11613.6874610,E,4,26,0.59,54.612,M,,M,2.000,0000*40
$GNGGA,025056.60,4003.8515902,N,11613.6874618,E,4,26,0.59,54.616,M,,M,2.000,0000*4C
$GNGGA,025056.79,4003.8515909,N,11613.6874613,E,4,26,0.59,54.615,M,,M,2.000,0000*47
$GNGGA,025057.00,4003.8515912,N,11613.6874613,E,4,26,0.59,54.614,M,,M,3.000,0000*42
$GNGGA,025057.20,4003.8515908,N,11613.6874610,E,4,26,0.59,54.615,M,,M,3.000,0000*49
$GNGGA,025057.40,4003.8515916,N,11613.6874602,E,4,26,0.59,54.613,M,,M,3.000,0000*45
$GNGGA,025057.60,4003.8515915,N,11613.6874604,E,4,26,0.59,54.615,M,,M,3.000,0000*44
$GNGGA,025057.79,4003.8515915,N,11613.6874602,E,4,26,0.59,54.615,M,,M,3.000,0000*4A
$GNGGA,025058.00,4003.8515911,N,11613.6874590,E,4,26,0.59,54.611,M,,M,3.000,0000*43
$GNGGA,025058.20,4003.8515904,N,11613.6874599,E,4,26,0.59,54.612,M,,M,3.000,0000*4F
$GNGGA,025058.40,4003.8515914,N,11613.6874587,E,4,26,0.59,54.613,M,,M,3.000,0000*46
$GNGGA,025058.60,4003.8515913,N,11613.6874589,E,4,26,0.59,54.613,M,,M,3.000,0000*4D
$GNGGA,025058.79,4003.8515920,N,11613.6874586,E,4,26,0.59,54.610,M,,M,2.000,0000*48
$GNGGA,025059.00,4003.8515917,N,11613.6874593,E,4,26,0.59,54.611,M,,M,3.000,0000*47
$GNGGA,025059.20,4003.8515919,N,11613.6874595,E,4,26,0.59,54.611,M,,M,3.000,0000*4D
$GNGGA,025059.40,4003.8515921,N,11613.6874583,E,4,26,0.59,54.612,M,,M,3.000,0000*44
$GNGGA,025059.60,4003.8515924,N,11613.6874590,E,4,26,0.59,54.612,M,,M,3.000,0000*41
$GNGGA,025059.79,4003.8515925,N,11613.6874592,E,4,26,0.59,54.614,M,,M,3.000,0000*4C
$GNGGA,025100.00,4003.8515929,N,11613.6874586,E,4,26,0.59,54.611,M,,M,4.000,0000*44
$GNGGA,025100.20,4003.8515929,N,11613.6874582,E,4,26,0.59,54.613,M,,M,4.000,0000*40
$GNGGA,025100.40,4003.8515924,N,11613.6874589,E,4,26,0.59,54.610,M,,M,3.000,0000*44
$GNGGA,025100.60,4003.8515920,N,11613.6874591,E,4,26,0.59,54.611,M,,M,3.000,0000*4A
$GNGGA,025100.79,4003.8515914,N,11613.6874603,E,4,26,0.59,54.613,M,,M,3.000,0000*4F
$GNGGA,025101.00,4003.8515923,N,11613.6874592,E,4,26,0.59,54.610,M,,M,4.000,0000*4B
$GNGGA,025101.20,4003.8515918,N,11613.6874600,E,4,26,0.59,54.613,M,,M,4.000,0000*4A
$GNGGA,025101.40,4003.8515913,N,11613.6874603,E,4,26,0.59,54.614,M,,M,4.000,0000*43
$GNGGA,025101.60,4003.8515916,N,11613.6874596,E,4,26,0.59,54.612,M,,M,4.000,0000*4D
$GNGGA,025101.79,4003.8515918,N,11613.6874593,E,4,26,0.59,54.612,M,,M,4.000,0000*4E
$GNGGA,025102.00,4003.8515918,N,11613.6874601,E,4,26,0.59,54.612,M,,M,5.000,0000*4A
$GNGGA,025102.20,4003.8515913,N,11613.6874601,E,4,26,0.59,54.614,M,,M,5.000,0000*45
$GNGGA,025102.40,4003.8515910,N,11613.6874616,E,4,26,0.59,54.613,M,,M,5.000,0000*41
$GNGGA,025102.60,4003.8515913,N,11613.6874614,E,4,26,0.59,54.612,M,,M,5.000,0000*43
$GNGGA,025102.79,4003.8515911,N,11613.6874620,E,4,26,0.59,54.611,M,,M,5.000,0000*4D
$GNGGA,025103.00,4003.8515909,N,11613.6874624,E,4,26,0.59,54.611,M,,M,6.000,0000*4C
$GNGGA,025103.20,4003.8515910,N,11613.6874623,E,4,26,0.59,54.612,M,,M,6.000,0000*42
$GNGGA,025103.40,4003.8515915,N,11613.6874614,E,4,26,0.59,54.613,M,,M,6.000,0000*44
$GNGGA,025103.60,4003.8515905,N,11613.6874627,E,4,26,0.59,54.611,M,,M,6.000,0000*45
$GNGGA,025103.79,4003.8515913,N,11613.6874626,E,4,26,0.59,54.612,M,,M,6.000,0000*48
$GNGGA,025104.00,4003.8515907,N,11613.6874632,E,4,26,0.59,54.609,M,,M,7.000,0000*4A
$GNGGA,025104.20,4003.8515908,N,11613.6874623,E,4,26,0.59,54.610,M,,M,7.000,0000*4F
$GNGGA,025104.40,4003.8515908,N,11613.6874630,E,4,26,0.59,54.610,M,,M,7.000,0000*4B
$GNGGA,025104.60,4003.8515902,N,11613.6874637,E,4,26,0.59,54.610,M,,M,7.000,0000*44
$GNGGA,025104.79,4003.8515908,N,11613.6874637,E,4,26,0.59,54.607,M,,M,7.000,0000*40
$GNGGA,025105.00,4003.8515907,N,11613.6874635,E,4,26,0.59,54.609,M,,M,8.000,0000*43
$GNGGA,025105.20,4003.8515904,N,11613.6874640,E,4,26,0.59,54.609,M,,M,8.000,0000*40
$GNGGA,025105.40,4003.8515908,N,11613.6874642,E,4,26,0.59,54.609,M,,M,8.000,0000*48
$GNGGA,025105.60,4003.8515912,N,11613.6874640,E,4,26,0.59,54.611,M,,M,8.000,0000*4A
$GNGGA,025105.79,4003.8515908,N,11613.6874639,E,4,26,0.59,54.608,M,,M,8.000,0000*4F
$GNGGA,025106.00,4003.8515916,N,11613.6874639,E,4,26,0.59,54.608,M,,M,9.000,0000*4C
$GNGGA,025106.20,4003.8515905,N,11613.6874652,E,4,26,0.59,54.609,M,,M,9.000,0000*40
$GNGGA,025106.40,4003.8515912,N,11613.6874649,E,4,26,0.59,54.607,M,,M,9.000,0000*44
$GNGGA,025106.60,4003.8515905,N,11613.6874652,E,4,26,0.59,54.609,M,,M,9.000,0000*44
$GNGGA,025106.79,4003.8515904,N,11613.6874659,E,4,26,0.59,54.607,M,,M,9.000,0000*48
$GNGGA,025107.00,4003.8515906,N,11613.6874655,E,4,26,0.59,54.608,M,,M,10.000,0000*7E
$GNGGA,025107.20,4003.8515907,N,11613.6874652,E,4,26,0.59,54.609,M,,M,10.000,0000*7B
$GNGGA,025107.40,4003.8515908,N,11613.6874648,E,4,26,0.59,54.608,M,,M,10.000,0000*78
$GNGGA,025107.60,4003.8515908,N,11613.6874651,E,4,26,0.59,54.609,M,,M,10.000,0000*73
$GNGGA,025107.79,4003.8515911,N,11613.6874651,E,4,26,0.59,54.608,M,,M,10.000,0000*72
$GNGGA,025108.00,4003.8515910,N,11613.6874655,E,4,26,0.59,54.610,M,,M,11.000,0000*7E
$GNGGA,025108.20,4003.8515913,N,11613.6874657,E,4,26,0.59,54.608,M,,M,11.000,0000*74
$GNGGA,025108.40,4003.8515921,N,11613.6874650,E,4,26,0.59,54.610,M,,M,11.000,0000*7D
$GNGGA,025108.60,4003.8515919,N,11613.6874646,E,4,26,0.59,54.608,M,,M,11.000,0000*7A
$GNGGA,025108.79,4003.8515918,N,11613.6874655,E,4,26,0.59,54.609,M,,M,11.000,0000*70
$GNGGA,025109.00,4003.8515914,N,11613.6874654,E,4,26,0.59,54.608,M,,M,12.000,0000*70
$GNGGA,025109.20,4003.8515915,N,11613.6874660,E,4,26,0.59,54.609,M,,M,12.000,0000*75
$GNGGA,025109.40,4003.8515916,N,11613.6874659,E,4,26,0.59,54.609,M,,M,12.000,0000*7A
$GNGGA,025109.60,4003.8515912,N,11613.6874669,E,4,26,0.59,54.607,M,,M,12.000,0000*71
$GNGGA,025109.79,4003.8515918,N,11613.6874657,E,4,26,0.59,54.606,M,,M,12.000,0000*7F
$GNGGA,025110.00,4003.8515918,N,11613.6874660,E,4,26,0.59,54.605,M,,M,13.000,0000*7F
$GNGGA,025110.20,4003.8515916,N,11613.6874664,E,4,26,0.59,54.607,M,,M,13.000,0000*75
$GNGGA,025110.40,4003.8515918,N,11613.6874665,E,4,26,0.59,54.606,M,,M,13.000,0000*7D
$GNGGA,025110.60,4003.8515918,N,11613.6874664,E,4,26,0.59,54.606,M,,M,13.000,0000*7E
$GNGGA,025110.79,4003.8515921,N,11613.6874662,E,4,26,0.59,54.606,M,,M,13.000,0000*7A
$GNGGA,025111.00,4003.8515921,N,11613.6874652,E,4,26,0.59,54.605,M,,M,14.000,0000*72
$GNGGA,025111.20,4003.8515916,N,11613.6874671,E,4,26,0.59,54.606,M,,M,14.000,0000*76
$GNGGA,025111.40,4003.8515914,N,11613.6874670,E,4,26,0.59,54.606,M,,M,14.000,0000*73
$GNGGA,025111.60,4003.8515917,N,11613.6874668,E,4,26,0.59,54.607,M,,M,14.000,0000*7A
$GNGGA,025111.79,4003.8515910,N,11613.6874670,E,4,26,0.59,54.608,M,,M,14.000,0000*73
$GNGGA,025112.00,4003.8515920,N,11613.6874657,E,4,26,0.59,54.608,M,,M,15.000,0000*79
$GNGGA,025112.20,4003.8515927,N,11613.6874660,E,4,26,0.59,54.609,M,,M,15.000,0000*79
$GNGGA,025112.40,4003.8515920,N,11613.6874661,E,4,26,0.59,54.611,M,,M,15.000,0000*70
$GNGGA,025112.60,4003.8515927,N,11613.6874663,E,4,26,0.59,54.608,M,,M,15.000,0000*7F
$GNGGA,025112.79,4003.8515929,N,11613.6874653,E,4,26,0.59,54.609,M,,M,15.000,0000*7B
$GNGGA,025113.00,4003.8515921,N,11613.6874664,E,4,26,0.59,54.612,M,,M,16.000,0000*71
$GNGGA,025113.20,4003.8515927,N,11613.6874662,E,4,26,0.59,54.610,M,,M,16.000,0000*71
$GNGGA,025113.40,4003.8515929,N,11613.6874661,E,4,26,0.59,54.611,M,,M,16.000,0000*7B
$GNGGA,025113.60,4003.8515925,N,11613.6874662,E,4,26,0.59,54.610,M,,M,16.000,0000*77
$GNGGA,025113.79,4003.8515934,N,11613.6874655,E,4,26,0.59,54.610,M,,M,16.000,0000*7B
$GNGGA,025114.00,4003.8515923,N,11613.6874661,E,4,26,0.59,54.611,M,,M,17.000,0000*73
$GNGGA,025114.20,4003.8515928,N,11613.6874665,E,4,26,0.59,54.612,M,,M,17.000,0000*7D
$GNGGA,025114.40,4003.8515928,N,11613.6874667,E,4,26,0.59,54.613,M,,M,17.000,0000*78
$GNGGA,025114.60,4003.8515933,N,11613.6874661,E,4,26,0.59,54.612,M,,M,17.000,0000*77
$GNGGA,025114.79,4003.8515927,N,11613.6874669,E,4,26,0.59,54.613,M,,M,17.000,0000*73
$GNGGA,025115.00,4003.8515931,N,11613.6874660,E,4,26,0.59,54.611,M,,M,18.000,0000*7F
$GNGGA,025115.20,4003.8515928,N,11613.6874664,E,4,26,0.59,54.612,M,,M,18.000,0000*72
$GNGGA,025115.40,4003.8515929,N,11613.6874668,E,4,26,0.59,54.611,M,,M,18.000,0000*7A
$GNGGA,025115.60,4003.8515929,N,11613.6874669,E,4,26,0.59,54.613,M,,M,18.000,0000*7B
$GNGGA,025115.79,4003.8515924,N,11613.6874672,E,4,26,0.59,54.611,M,,M,18.000,0000*76
$GNGGA,025116.00,4003.8515919,N,11613.6874686,E,4,26,0.59,54.611,M,,M,19.000,0000*7F
$GNGGA,025116.20,4003.8515920,N,11613.6874672,E,4,26,0.59,54.611,M,,M,19.000,0000*7C
$GNGGA,025116.40,4003.8515929,N,11613.6874669,E,4,26,0.59,54.612,M,,M,19.000,0000*7A
$GNGGA,025116.60,4003.8515922,N,11613.6874667,E,4,26,0.59,54.611,M,,M,19.000,0000*7E
$GNGGA,025116.79,4003.8515929,N,11613.6874671,E,4,26,0.59,54.611,M,,M,19.000,0000*7A
$GNGGA,025117.00,4003.8515933,N,11613.6874672,E,4,26,0.59,54.612,M,,M,20.000,0000*74
$GNGGA,025117.20,4003.8515926,N,11613.6874676,E,4,26,0.59,54.612,M,,M,20.000,0000*76
$GNGGA,025117.40,4003.8515924,N,11613.6874672,E,4,26,0.59,54.612,M,,M,20.000,0000*76
$GNGGA,025117.60,4003.8515928,N,11613.6874674,E,4,26,0.59,54.610,M,,M,20.000,0000*7C
$GNGGA,025117.79,4003.8515927,N,11613.6874675,E,4,26,0.59,54.610,M,,M,20.000,0000*7A
$GNGGA,025118.00,4003.8515931,N,11613.6874680,E,4,26,0.59,54.612,M,,M,21.000,0000*75
$GNGGA,025118.20,4003.8515926,N,11613.6874685,E,4,26,0.59,54.612,M,,M,21.000,0000*74
$GNGGA,025118.40,4003.8515932,N,11613.6874674,E,4,26,0.59,54.612,M,,M,21.000,0000*79
$GNGGA,025118.60,4003.8515931,N,11613.6874686,E,4,26,0.59,54.613,M,,M,21.000,0000*74
$GNGGA,025118.79,4003.8515923,N,11613.6874688,E,4,26,0.59,54.615,M,,M,21.000,0000*77
$GNGGA,025119.00,4003.8515932,N,11613.6874679,E,4,26,0.59,54.612,M,,M,21.000,0000*71
$GNGGA,025119.20,4003.8515928,N,11613.6874690,E,4,26,0.59,54.616,M,,M,21.000,0000*7B
$GNGGA,025119.40,4003.8515928,N,11613.6874689,E,4,26,0.59,54.614,M,,M,21.000,0000*77
$GNGGA,025119.60,4003.8515925,N,11613.6874698,E,4,26,0.59,54.615,M,,M,21.000,0000*79
$GNGGA,025119.79,4003.8515930,N,11613.6874689,E,4,26,0.59,54.614,M,,M,21.000,0000*74
$GNGGA,025120.00,4003.8515926,N,11613.6874698,E,4,26,0.59,54.614,M,,M,22.000,0000*74
$GNGGA,025120.20,4003.8515916,N,11613.6874689,E,4,25,0.61,54.614,M,,M,21.000,0000*7E
$GNGGA,025120.40,4003.8515918,N,11613.6874697,E,4,25,0.61,54.613,M,,M,21.000,0000*7E
$GNGGA,025120.60,4003.8515922,N,11613.6874691,E,4,25,0.61,54.613,M,,M,21.000,0000*73
$GNGGA,025120.79,4003.8515926,N,11613.6874694,E,4,25,0.61,54.614,M,,M,21.000,0000*7D
$GNGGA,025121.00,4003.8515917,N,11613.6874704,E,4,25,0.61,54.615,M,,M,22.000,0000*7A
$GNGGA,025121.20,4003.8515915,N,11613.6874709,E,4,25,0.61,54.615,M,,M,22.000,0000*77
$GNGGA,025121.40,4003.8515918,N,11613.6874702,E,4,25,0.61,54.615,M,,M,21.000,0000*74
$GNGGA,025121.60,4003.8515910,N,11613.6874712,E,4,25,0.61,54.616,M,,M,21.000,0000*7C
$GNGGA,025121.79,4003.8515909,N,11613.6874713,E,4,25,0.61,54.617,M,,M,21.000,0000*7C
$GNGGA,025122.00,4003.8515910,N,11613.6874711,E,4,25,0.61,54.618,M,,M,22.000,0000*77
$GNGGA,025122.20,4003.8515910,N,11613.6874706,E,4,25,0.61,54.617,M,,M,22.000,0000*7C
$GNGGA,025122.40,4003.8515916,N,11613.6874711,E,4,26,0.59,54.616,M,,M,21.000,0000*70
$GNGGA,025122.60,4003.8515919,N,11613.6874712,E,4,26,0.59,54.617,M,,M,21.000,0000*7F
$GNGGA,025122.79,4003.8515916,N,11613.6874715,E,4,26,0.59,54.617,M,,M,21.000,0000*7F
$GNGGA,025123.00,4003.8515913,N,11613.6874730,E,4,26,0.59,54.616,M,,M,22.000,0000*70
$GNGGA,025123.20,4003.8515913,N,11613.6874712,E,4,26,0.59,54.617,M,,M,22.000,0000*73
$GNGGA,025123.40,4003.8515919,N,11613.6874712,E,4,26,0.59,54.618,M,,M,22.000,0000*70
$GNGGA,025123.60,4003.8515912,N,11613.6874720,E,4,26,0.59,54.619,M,,M,21.000,0000*7A
$GNGGA,025123.79,4003.8515915,N,11613.6874731,E,4,26,0.59,54.619,M,,M,21.000,0000*75
$GNGGA,025124.00,4003.8515919,N,11613.6874724,E,4,26,0.59,54.619,M,,M,22.000,0000*77
$GNGGA,025124.20,4003.8515916,N,11613.6874728,E,4,26,0.59,54.620,M,,M,22.000,0000*7C
$GNGGA,025124.40,4003.8515910,N,11613.6874730,E,4,26,0.59,54.621,M,,M,22.000,0000*74
$GNGGA,025124.60,4003.8515912,N,11613.6874730,E,4,26,0.59,54.621,M,,M,22.000,0000*74
$GNGGA,025124.79,4003.8515895,N,11613.6874656,E,4,18,0.83,54.622,M,,M,21.000,0000*79
$GNGGA,025125.00,4003.8515882,N,11613.6874683,E,4,18,0.83,54.626,M,,M,22.000,0000*7F
$GNGGA,025125.20,4003.8515888,N,11613.6874668,E,4,18,0.83,54.626,M,,M,22.000,0000*72
$GNGGA,025125.40,4003.8515886,N,11613.6874671,E,4,18,0.83,54.626,M,,M,22.000,0000*72
$GNGGA,025125.60,4003.8515898,N,11613.6874654,E,4,18,0.83,54.623,M,,M,22.000,0000*7D
$GNGGA,025125.79,4003.8515884,N,11613.6874682,E,4,18,0.83,54.626,M,,M,22.000,0000*76
$GNGGA,025126.00,4003.8515902,N,11613.6874636,E,4,26,0.59,54.623,M,,M,22.000,0000*74
$GNGGA,025126.20,4003.8515907,N,11613.6874657,E,4,26,0.59,54.620,M,,M,22.000,0000*77
$GNGGA,025126.40,4003.8515907,N,11613.6874655,E,4,26,0.59,54.620,M,,M,22.000,0000*73
$GNGGA,025126.60,4003.8515919,N,11613.6874649,E,4,26,0.59,54.620,M,,M,22.000,0000*73
$GNGGA,025126.79,4003.8515911,N,11613.6874651,E,4,26,0.59,54.622,M,,M,22.000,0000*78
$GNGGA,025127.00,4003.8515904,N,11613.6874646,E,4,26,0.59,54.623,M,,M,23.000,0000*75
$GNGGA,025127.20,4003.8515917,N,11613.6874641,E,4,26,0.59,54.622,M,,M,22.000,0000*72
$GNGGA,025127.40,4003.8515917,N,11613.6874641,E,4,26,0.59,54.622,M,,M,22.000,0000*74
$GNGGA,025127.60,4003.8515925,N,11613.6874642,E,4,26,0.59,54.623,M,,M,22.000,0000*75
